[ {
        "id": 4023,
        "name": "Andaman and Nicobar Islands",
        "country_id": 101,
       "country_code": "India",
        "country_name": "India",
        "state_code": "AN",
        "type": "Union territory",
        "latitude": "11.74008670",
        "longitude": "92.65864010"
    },
    {
        "id": 4017,
        "name": "Andhra Pradesh",
        "country_id": 101,
       "country_code": "India",
        "country_name": "India",
        "state_code": "AP",
        "type": "state",
        "latitude": "15.91289980",
        "longitude": "79.73998750"
    },
    {
        "id": 4024,
        "name": "Arunachal Pradesh",
        "country_id": 101,
       "country_code": "India",
        "country_name": "India",
        "state_code": "AR",
        "type": "state",
        "latitude": "28.21799940",
        "longitude": "94.72775280"
    },
    {
        "id": 4027,
        "name": "Assam",
        "country_id": 101,
       "country_code": "India",
        "country_name": "India",
        "state_code": "AS",
        "type": "state",
        "latitude": "26.20060430",
        "longitude": "92.93757390"
    },
    {
        "id": 4037,
        "name": "Bihar",
        "country_id": 101,
       "country_code": "India",
        "country_name": "India",
        "state_code": "BR",
        "type": "state",
        "latitude": "25.09607420",
        "longitude": "85.31311940"
    },
    {
        "id": 4031,
        "name": "Chandigarh",
        "country_id": 101,
       "country_code": "India",
        "country_name": "India",
        "state_code": "CH",
        "type": "Union territory",
        "latitude": "30.73331480",
        "longitude": "76.77941790"
    },
    {
        "id": 4040,
        "name": "Chhattisgarh",
        "country_id": 101,
       "country_code": "India",
        "country_name": "India",
        "state_code": "CT",
        "type": "state",
        "latitude": "21.27865670",
        "longitude": "81.86614420"
    },
    {
        "id": 4009,
        "name": "Goa",
        "country_id": 101,
       "country_code": "India",
        "country_name": "India",
        "state_code": "GA",
        "type": "state",
        "latitude": "15.29932650",
        "longitude": "74.12399600"
    },
    {
        "id": 4030,
        "name": "Gujarat",
        "country_id": 101,
       "country_code": "India",
        "country_name": "India",
        "state_code": "GJ",
        "type": "state",
        "latitude": "22.25865200",
        "longitude": "71.19238050"
    },
    {
        "id": 4007,
        "name": "Haryana",
        "country_id": 101,
       "country_code": "India",
        "country_name": "India",
        "state_code": "HR",
        "type": "state",
        "latitude": "29.05877570",
        "longitude": "76.08560100"
    },
    {
        "id": 4020,
        "name": "Himachal Pradesh",
        "country_id": 101,
       "country_code": "India",
        "country_name": "India",
        "state_code": "HP",
        "type": "state",
        "latitude": "31.10482940",
        "longitude": "77.17339010"
    },
    {
        "id": 4025,
        "name": "Jharkhand",
        "country_id": 101,
       "country_code": "India",
        "country_name": "India",
        "state_code": "JH",
        "type": "state",
        "latitude": "23.61018080",
        "longitude": "85.27993540"
    },
    {
        "id": 4026,
        "name": "Karnataka",
        "country_id": 101,
       "country_code": "India",
        "country_name": "India",
        "state_code": "KA",
        "type": "state",
        "latitude": "15.31727750",
        "longitude": "75.71388840"
    },
    {
        "id": 4028,
        "name": "Kerala",
        "country_id": 101,
       "country_code": "India",
        "country_name": "India",
        "state_code": "KL",
        "type": "state",
        "latitude": "10.85051590",
        "longitude": "76.27108330"
    },
    {
        "id": 4039,
        "name": "Madhya Pradesh",
        "country_id": 101,
       "country_code": "India",
        "country_name": "India",
        "state_code": "MP",
        "type": "state",
        "latitude": "22.97342290",
        "longitude": "78.65689420"
    },
    {
        "id": 4008,
        "name": "Maharashtra",
        "country_id": 101,
       "country_code": "India",
        "country_name": "India",
        "state_code": "MH",
        "type": "state",
        "latitude": "19.75147980",
        "longitude": "75.71388840"
    },
    {
        "id": 4010,
        "name": "Manipur",
        "country_id": 101,
       "country_code": "India",
        "country_name": "India",
        "state_code": "MN",
        "type": "state",
        "latitude": "24.66371730",
        "longitude": "93.90626880"
    },
    {
        "id": 4006,
        "name": "Meghalaya",
        "country_id": 101,
       "country_code": "India",
        "country_name": "India",
        "state_code": "ML",
        "type": "state",
        "latitude": "25.46703080",
        "longitude": "91.36621600"
    },
    {
        "id": 4036,
        "name": "Mizoram",
        "country_id": 101,
       "country_code": "India",
        "country_name": "India",
        "state_code": "MZ",
        "type": "state",
        "latitude": "23.16454300",
        "longitude": "92.93757390"
    },
    {
        "id": 4018,
        "name": "Nagaland",
        "country_id": 101,
       "country_code": "India",
        "country_name": "India",
        "state_code": "NL",
        "type": "state",
        "latitude": "26.15843540",
        "longitude": "94.56244260"
    },
    {
        "id": 4013,
        "name": "Odisha",
        "country_id": 101,
       "country_code": "India",
        "country_name": "India",
        "state_code": "OR",
        "type": "state",
        "latitude": "20.95166580",
        "longitude": "85.09852360"
    },
    {
        "id": 4015,
        "name": "Punjab",
        "country_id": 101,
       "country_code": "India",
        "country_name": "India",
        "state_code": "PB",
        "type": "state",
        "latitude": "31.14713050",
        "longitude": "75.34121790"
    },
    {
        "id": 4014,
        "name": "Rajasthan",
        "country_id": 101,
       "country_code": "India",
        "country_name": "India",
        "state_code": "RJ",
        "type": "state",
        "latitude": "27.02380360",
        "longitude": "74.21793260"
    },
    {
        "id": 4034,
        "name": "Sikkim",
        "country_id": 101,
       "country_code": "India",
        "country_name": "India",
        "state_code": "SK",
        "type": "state",
        "latitude": "27.53297180",
        "longitude": "88.51221780"
    },
    {
        "id": 4035,
        "name": "Tamil Nadu",
        "country_id": 101,
       "country_code": "India",
        "country_name": "India",
        "state_code": "TN",
        "type": "state",
        "latitude": "11.12712250",
        "longitude": "78.65689420"
    },
    {
        "id": 4012,
        "name": "Telangana",
        "country_id": 101,
       "country_code": "India",
        "country_name": "India",
        "state_code": "TG",
        "type": "state",
        "latitude": "18.11243720",
        "longitude": "79.01929970"
    },
    {
        "id": 4038,
        "name": "Tripura",
        "country_id": 101,
       "country_code": "India",
        "country_name": "India",
        "state_code": "TR",
        "type": "state",
        "latitude": "23.94084820",
        "longitude": "91.98815270"
    },
    {
        "id": 4022,
        "name": "Uttar Pradesh",
        "country_id": 101,
       "country_code": "India",
        "country_name": "India",
        "state_code": "UP",
        "type": "state",
        "latitude": "26.84670880",
        "longitude": "80.94615920"
    },
    {
        "id": 4016,
        "name": "Uttarakhand",
        "country_id": 101,
       "country_code": "India",
        "country_name": "India",
        "state_code": "UT",
        "type": "state",
        "latitude": "30.06675300",
        "longitude": "79.01929970"
    },
    {
        "id": 4853,
        "name": "West Bengal",
        "country_id": 101,
       "country_code": "India",
        "country_name": "India",
        "state_code": "WB",
        "type": "state",
        "latitude": "22.98675690",
        "longitude": "87.85497550"
    },
    {
        "id": 1456,
        "name": "Alabama",
        "country_id": 233,
        "country_code": "USA",
        "country_name": "United States",
        "state_code": "AL",
        "type": "state",
        "latitude": "32.31823140",
        "longitude": "-86.90229800"
    },
    {
        "id": 1400,
        "name": "Alaska",
        "country_id": 233,
        "country_code": "USA",
        "country_name": "United States",
        "state_code": "AK",
        "type": "state",
        "latitude": "64.20084130",
        "longitude": "-149.49367330"
    },
    {
        "id": 1424,
        "name": "American Samoa",
        "country_id": 233,
        "country_code": "USA",
        "country_name": "United States",
        "state_code": "AS",
        "type": "outlying area",
        "latitude": "-14.27097200",
        "longitude": "-170.13221700"
    },
    {
        "id": 1434,
        "name": "Arizona",
        "country_id": 233,
        "country_code": "USA",
        "country_name": "United States",
        "state_code": "AZ",
        "type": "state",
        "latitude": "34.04892810",
        "longitude": "-111.09373110"
    },
    {
        "id": 1444,
        "name": "Arkansas",
        "country_id": 233,
        "country_code": "USA",
        "country_name": "United States",
        "state_code": "AR",
        "type": "state",
        "latitude": "35.20105000",
        "longitude": "-91.83183340"
    },
    {
        "id": 1402,
        "name": "Baker Island",
        "country_id": 233,
        "country_code": "USA",
        "country_name": "United States",
        "state_code": "UM-81",
        "type": "islands \/ groups of islands",
        "latitude": "0.19362660",
        "longitude": "-176.47690800"
    },
    {
        "id": 1416,
        "name": "California",
        "country_id": 233,
        "country_code": "USA",
        "country_name": "United States",
        "state_code": "CA",
        "type": "state",
        "latitude": "36.77826100",
        "longitude": "-119.41793240"
    },
    {
        "id": 1450,
        "name": "Colorado",
        "country_id": 233,
        "country_code": "USA",
        "country_name": "United States",
        "state_code": "CO",
        "type": "state",
        "latitude": "39.55005070",
        "longitude": "-105.78206740"
    },
    {
        "id": 1435,
        "name": "Connecticut",
        "country_id": 233,
        "country_code": "USA",
        "country_name": "United States",
        "state_code": "CT",
        "type": "state",
        "latitude": "41.60322070",
        "longitude": "-73.08774900"
    },
    {
        "id": 1399,
        "name": "Delaware",
        "country_id": 233,
        "country_code": "USA",
        "country_name": "United States",
        "state_code": "DE",
        "type": "state",
        "latitude": "38.91083250",
        "longitude": "-75.52766990"
    },
    {
        "id": 1437,
        "name": "District of Columbia",
        "country_id": 233,
        "country_code": "USA",
        "country_name": "United States",
        "state_code": "DC",
        "type": "district",
        "latitude": "38.90719230",
        "longitude": "-77.03687070"
    },
    {
        "id": 1436,
        "name": "Florida",
        "country_id": 233,
        "country_code": "USA",
        "country_name": "United States",
        "state_code": "FL",
        "type": "state",
        "latitude": "27.66482740",
        "longitude": "-81.51575350"
    },
    {
        "id": 1455,
        "name": "Georgia",
        "country_id": 233,
        "country_code": "USA",
        "country_name": "United States",
        "state_code": "GA",
        "type": "state",
        "latitude": "32.16562210",
        "longitude": "-82.90007510"
    },
    {
        "id": 1412,
        "name": "Guam",
        "country_id": 233,
        "country_code": "USA",
        "country_name": "United States",
        "state_code": "GU",
        "type": "outlying area",
        "latitude": "13.44430400",
        "longitude": "144.79373100"
    },
    {
        "id": 1411,
        "name": "Hawaii",
        "country_id": 233,
        "country_code": "USA",
        "country_name": "United States",
        "state_code": "HI",
        "type": "state",
        "latitude": "19.89676620",
        "longitude": "-155.58278180"
    },
    {
        "id": 1398,
        "name": "Howland Island",
        "country_id": 233,
        "country_code": "USA",
        "country_name": "United States",
        "state_code": "UM-84",
        "type": "islands \/ groups of islands",
        "latitude": "0.81132190",
        "longitude": "-176.61827360"
    },
    {
        "id": 1460,
        "name": "Idaho",
        "country_id": 233,
        "country_code": "USA",
        "country_name": "United States",
        "state_code": "ID",
        "type": "state",
        "latitude": "44.06820190",
        "longitude": "-114.74204080"
    },
    {
        "id": 1425,
        "name": "Illinois",
        "country_id": 233,
        "country_code": "USA",
        "country_name": "United States",
        "state_code": "IL",
        "type": "state",
        "latitude": "40.63312490",
        "longitude": "-89.39852830"
    },
    {
        "id": 1440,
        "name": "Indiana",
        "country_id": 233,
        "country_code": "USA",
        "country_name": "United States",
        "state_code": "IN",
        "type": "state",
        "latitude": "40.26719410",
        "longitude": "-86.13490190"
    },
    {
        "id": 1459,
        "name": "Iowa",
        "country_id": 233,
        "country_code": "USA",
        "country_name": "United States",
        "state_code": "IA",
        "type": "state",
        "latitude": "41.87800250",
        "longitude": "-93.09770200"
    },
    {
        "id": 1410,
        "name": "Jarvis Island",
        "country_id": 233,
        "country_code": "USA",
        "country_name": "United States",
        "state_code": "UM-86",
        "type": "islands \/ groups of islands",
        "latitude": "-0.37435030",
        "longitude": "-159.99672060"
    },
    {
        "id": 1428,
        "name": "Johnston Atoll",
        "country_id": 233,
        "country_code": "USA",
        "country_name": "United States",
        "state_code": "UM-67",
        "type": "islands \/ groups of islands",
        "latitude": "16.72950350",
        "longitude": "-169.53364770"
    },
    {
        "id": 1406,
        "name": "Kansas",
        "country_id": 233,
        "country_code": "USA",
        "country_name": "United States",
        "state_code": "KS",
        "type": "state",
        "latitude": "39.01190200",
        "longitude": "-98.48424650"
    },
    {
        "id": 1419,
        "name": "Kentucky",
        "country_id": 233,
        "country_code": "USA",
        "country_name": "United States",
        "state_code": "KY",
        "type": "state",
        "latitude": "37.83933320",
        "longitude": "-84.27001790"
    },
    {
        "id": 1403,
        "name": "Kingman Reef",
        "country_id": 233,
        "country_code": "USA",
        "country_name": "United States",
        "state_code": "UM-89",
        "type": "islands \/ groups of islands",
        "latitude": "6.38333300",
        "longitude": "-162.41666700"
    },
    {
        "id": 1457,
        "name": "Louisiana",
        "country_id": 233,
        "country_code": "USA",
        "country_name": "United States",
        "state_code": "LA",
        "type": "state",
        "latitude": "30.98429770",
        "longitude": "-91.96233270"
    },
    {
        "id": 1453,
        "name": "Maine",
        "country_id": 233,
        "country_code": "USA",
        "country_name": "United States",
        "state_code": "ME",
        "type": "state",
        "latitude": "45.25378300",
        "longitude": "-69.44546890"
    },
    {
        "id": 1401,
        "name": "Maryland",
        "country_id": 233,
        "country_code": "USA",
        "country_name": "United States",
        "state_code": "MD",
        "type": "state",
        "latitude": "39.04575490",
        "longitude": "-76.64127120"
    },
    {
        "id": 1433,
        "name": "Massachusetts",
        "country_id": 233,
        "country_code": "USA",
        "country_name": "United States",
        "state_code": "MA",
        "type": "state",
        "latitude": "42.40721070",
        "longitude": "-71.38243740"
    },
    {
        "id": 1426,
        "name": "Michigan",
        "country_id": 233,
        "country_code": "USA",
        "country_name": "United States",
        "state_code": "MI",
        "type": "state",
        "latitude": "44.31484430",
        "longitude": "-85.60236430"
    },
    {
        "id": 1438,
        "name": "Midway Atoll",
        "country_id": 233,
        "country_code": "USA",
        "country_name": "United States",
        "state_code": "UM-71",
        "type": "islands \/ groups of islands",
        "latitude": "28.20721680",
        "longitude": "-177.37349260"
    },
    {
        "id": 1420,
        "name": "Minnesota",
        "country_id": 233,
        "country_code": "USA",
        "country_name": "United States",
        "state_code": "MN",
        "type": "state",
        "latitude": "46.72955300",
        "longitude": "-94.68589980"
    },
    {
        "id": 1430,
        "name": "Mississippi",
        "country_id": 233,
        "country_code": "USA",
        "country_name": "United States",
        "state_code": "MS",
        "type": "state",
        "latitude": "32.35466790",
        "longitude": "-89.39852830"
    },
    {
        "id": 1451,
        "name": "Missouri",
        "country_id": 233,
        "country_code": "USA",
        "country_name": "United States",
        "state_code": "MO",
        "type": "state",
        "latitude": "37.96425290",
        "longitude": "-91.83183340"
    },
    {
        "id": 1446,
        "name": "Montana",
        "country_id": 233,
        "country_code": "USA",
        "country_name": "United States",
        "state_code": "MT",
        "type": "state",
        "latitude": "46.87968220",
        "longitude": "-110.36256580"
    },
    {
        "id": 1439,
        "name": "Navassa Island",
        "country_id": 233,
        "country_code": "USA",
        "country_name": "United States",
        "state_code": "UM-76",
        "type": "islands \/ groups of islands",
        "latitude": "18.41006890",
        "longitude": "-75.01146120"
    },
    {
        "id": 1408,
        "name": "Nebraska",
        "country_id": 233,
        "country_code": "USA",
        "country_name": "United States",
        "state_code": "NE",
        "type": "state",
        "latitude": "41.49253740",
        "longitude": "-99.90181310"
    },
    {
        "id": 1458,
        "name": "Nevada",
        "country_id": 233,
        "country_code": "USA",
        "country_name": "United States",
        "state_code": "NV",
        "type": "state",
        "latitude": "38.80260970",
        "longitude": "-116.41938900"
    },
    {
        "id": 1404,
        "name": "New Hampshire",
        "country_id": 233,
        "country_code": "USA",
        "country_name": "United States",
        "state_code": "NH",
        "type": "state",
        "latitude": "43.19385160",
        "longitude": "-71.57239530"
    },
    {
        "id": 1417,
        "name": "New Jersey",
        "country_id": 233,
        "country_code": "USA",
        "country_name": "United States",
        "state_code": "NJ",
        "type": "state",
        "latitude": "40.05832380",
        "longitude": "-74.40566120"
    },
    {
        "id": 1423,
        "name": "New Mexico",
        "country_id": 233,
        "country_code": "USA",
        "country_name": "United States",
        "state_code": "NM",
        "type": "state",
        "latitude": "34.51994020",
        "longitude": "-105.87009010"
    },
    {
        "id": 1452,
        "name": "New York",
        "country_id": 233,
        "country_code": "USA",
        "country_name": "United States",
        "state_code": "NY",
        "type": "state",
        "latitude": "40.71277530",
        "longitude": "-74.00597280"
    },
    {
        "id": 1447,
        "name": "North Carolina",
        "country_id": 233,
        "country_code": "USA",
        "country_name": "United States",
        "state_code": "NC",
        "type": "state",
        "latitude": "35.75957310",
        "longitude": "-79.01929970"
    },
    {
        "id": 1418,
        "name": "North Dakota",
        "country_id": 233,
        "country_code": "USA",
        "country_name": "United States",
        "state_code": "ND",
        "type": "state",
        "latitude": "47.55149260",
        "longitude": "-101.00201190"
    },
    {
        "id": 1431,
        "name": "Northern Mariana Islands",
        "country_id": 233,
        "country_code": "USA",
        "country_name": "United States",
        "state_code": "MP",
        "type": "outlying area",
        "latitude": "15.09790000",
        "longitude": "145.67390000"
    },
    {
        "id": 4851,
        "name": "Ohio",
        "country_id": 233,
        "country_code": "USA",
        "country_name": "United States",
        "state_code": "OH",
        "type": "state",
        "latitude": "40.41728710",
        "longitude": "-82.90712300"
    },
    {
        "id": 1421,
        "name": "Oklahoma",
        "country_id": 233,
        "country_code": "USA",
        "country_name": "United States",
        "state_code": "OK",
        "type": "state",
        "latitude": "35.46756020",
        "longitude": "-97.51642760"
    },
    {
        "id": 1415,
        "name": "Oregon",
        "country_id": 233,
        "country_code": "USA",
        "country_name": "United States",
        "state_code": "OR",
        "type": "state",
        "latitude": "43.80413340",
        "longitude": "-120.55420120"
    },
    {
        "id": 1448,
        "name": "Palmyra Atoll",
        "country_id": 233,
        "country_code": "USA",
        "country_name": "United States",
        "state_code": "UM-95",
        "type": "islands \/ groups of islands",
        "latitude": "5.88850260",
        "longitude": "-162.07866560"
    },
    {
        "id": 1422,
        "name": "Pennsylvania",
        "country_id": 233,
        "country_code": "USA",
        "country_name": "United States",
        "state_code": "PA",
        "type": "state",
        "latitude": "41.20332160",
        "longitude": "-77.19452470"
    },
    {
        "id": 1449,
        "name": "Puerto Rico",
        "country_id": 233,
        "country_code": "USA",
        "country_name": "United States",
        "state_code": "PR",
        "type": "outlying area",
        "latitude": "18.22083300",
        "longitude": "-66.59014900"
    },
    {
        "id": 1461,
        "name": "Rhode Island",
        "country_id": 233,
        "country_code": "USA",
        "country_name": "United States",
        "state_code": "RI",
        "type": "state",
        "latitude": "41.58009450",
        "longitude": "-71.47742910"
    },
    {
        "id": 1443,
        "name": "South Carolina",
        "country_id": 233,
        "country_code": "USA",
        "country_name": "United States",
        "state_code": "SC",
        "type": "state",
        "latitude": "33.83608100",
        "longitude": "-81.16372450"
    },
    {
        "id": 1445,
        "name": "South Dakota",
        "country_id": 233,
        "country_code": "USA",
        "country_name": "United States",
        "state_code": "SD",
        "type": "state",
        "latitude": "43.96951480",
        "longitude": "-99.90181310"
    },
    {
        "id": 1454,
        "name": "Tennessee",
        "country_id": 233,
        "country_code": "USA",
        "country_name": "United States",
        "state_code": "TN",
        "type": "state",
        "latitude": "35.51749130",
        "longitude": "-86.58044730"
    },
    {
        "id": 1407,
        "name": "Texas",
        "country_id": 233,
        "country_code": "USA",
        "country_name": "United States",
        "state_code": "TX",
        "type": "state",
        "latitude": "31.96859880",
        "longitude": "-99.90181310"
    },
    {
        "id": 1432,
        "name": "United States Minor Outlying Islands",
        "country_id": 233,
        "country_code": "USA",
        "country_name": "United States",
        "state_code": "UM",
        "type": "outlying area",
        "latitude": "19.28231920",
        "longitude": "166.64704700"
    },
    {
        "id": 1413,
        "name": "United States Virgin Islands",
        "country_id": 233,
        "country_code": "USA",
        "country_name": "United States",
        "state_code": "VI",
        "type": "outlying area",
        "latitude": "18.33576500",
        "longitude": "-64.89633500"
    },
    {
        "id": 1414,
        "name": "Utah",
        "country_id": 233,
        "country_code": "USA",
        "country_name": "United States",
        "state_code": "UT",
        "type": "state",
        "latitude": "39.32098010",
        "longitude": "-111.09373110"
    },
    {
        "id": 1409,
        "name": "Vermont",
        "country_id": 233,
        "country_code": "USA",
        "country_name": "United States",
        "state_code": "VT",
        "type": "state",
        "latitude": "44.55880280",
        "longitude": "-72.57784150"
    },
    {
        "id": 1427,
        "name": "Virginia",
        "country_id": 233,
        "country_code": "USA",
        "country_name": "United States",
        "state_code": "VA",
        "type": "state",
        "latitude": "37.43157340",
        "longitude": "-78.65689420"
    },
    {
        "id": 1405,
        "name": "Wake Island",
        "country_id": 233,
        "country_code": "USA",
        "country_name": "United States",
        "state_code": "UM-79",
        "type": "islands \/ groups of islands",
        "latitude": "19.27961900",
        "longitude": "166.64993480"
    },
    {
        "id": 1462,
        "name": "Washington",
        "country_id": 233,
        "country_code": "USA",
        "country_name": "United States",
        "state_code": "WA",
        "type": "state",
        "latitude": "47.75107410",
        "longitude": "-120.74013850"
    },
    {
        "id": 1429,
        "name": "West Virginia",
        "country_id": 233,
        "country_code": "USA",
        "country_name": "United States",
        "state_code": "WV",
        "type": "state",
        "latitude": "38.59762620",
        "longitude": "-80.45490260"
    },
    {
        "id": 1441,
        "name": "Wisconsin",
        "country_id": 233,
        "country_code": "USA",
        "country_name": "United States",
        "state_code": "WI",
        "type": "state",
        "latitude": "43.78443970",
        "longitude": "-88.78786780"
    },
    {
        "id": 1442,
        "name": "Wyoming",
        "country_id": 233,
        "country_code": "USA",
        "country_name": "United States",
        "state_code": "WY",
        "type": "state",
        "latitude": "43.07596780",
        "longitude": "-107.29028390"
    }
]